{"AL":{"key":"AL","name":"Alabama","bbox":{"minLat":30.222501133601334,"maxLat":35.008322669916694,"minLng":-88.4745951503515,"maxLng":-84.89247974539745}},"AK":{"key":"AK","name":"Alaska","bbox":{"minLat":51.229087747767466,"maxLat":71.352561,"minLng":-179.13657211802118,"maxLng":179.77488070600702}},"AZ":{"key":"AZ","name":"Arizona","bbox":{"minLat":31.332406253852533,"maxLat":37.0039183311733,"minLng":-114.8128344705447,"maxLng":-109.04483902389023}},"CO":{"key":"CO","name":"Colorado","bbox":{"minLat":36.99275055519555,"maxLat":41.00198213121131,"minLng":-109.05919619986199,"maxLng":-102.04212644366443}},"FL":{"key":"FL","name":"Florida","bbox":{"minLat":24.51490854927549,"maxLat":31.000809213282125,"minLng":-87.63470035600356,"maxLng":-80.03257567895679}},"GA":{"key":"GA","name":"Georgia","bbox":{"minLat":30.35909162440624,"maxLat":35.000591132701324,"minLng":-85.60674924999249,"maxLng":-80.84375612136121}},"IN":{"key":"IN","name":"Indiana","bbox":{"minLat":37.77191769456694,"maxLat":41.760531838008376,"minLng":-88.09771928109281,"maxLng":-84.78480092560925}},"KS":{"key":"KS","name":"Kansas","bbox":{"minLat":36.99275055519555,"maxLat":40.0028957110471,"minLng":-102.05289432564325,"maxLng":-94.59075211432113}},"ME":{"key":"ME","name":"Maine","bbox":{"minLat":43.059430090190894,"maxLat":47.459533825428245,"minLng":-71.08446575455754,"maxLng":-66.9819027206272}},"MA":{"key":"MA","name":"Massachusetts","bbox":{"minLat":41.23908260581605,"maxLat":42.88675909238091,"minLng":-73.507239199792,"maxLng":-69.92871308883089}},"MN":{"key":"MN","name":"Minnesota","bbox":{"minLat":43.49926865177651,"maxLat":49.384686592055914,"minLng":-97.23965108111081,"maxLng":-89.4903653503535}},"NJ":{"key":"NJ","name":"New Jersey","bbox":{"minLat":38.928212038110374,"maxLat":41.357632843118424,"minLng":-75.56031536375363,"maxLng":-73.8948829510295}},"NC":{"key":"NC","name":"North Carolina","bbox":{"minLat":33.85116926668266,"maxLat":36.5881334409244,"minLng":-84.32178200052,"maxLng":-75.45981513195132}},"ND":{"key":"ND","name":"North Dakota","bbox":{"minLat":45.934702874618736,"maxLat":49.00068691035909,"minLng":-104.04854178571784,"maxLng":-96.55768522245222}},"OK":{"key":"OK","name":"Oklahoma","bbox":{"minLat":33.61664597114971,"maxLat":37.002200211792115,"minLng":-103.00405723377233,"maxLng":-94.43282317863178}},"PA":{"key":"PA","name":"Pennsylvania","bbox":{"minLat":39.720265072840725,"maxLat":42.269954234532335,"minLng":-80.52071966199662,"maxLng":-74.69529551145511}},"SD":{"key":"SD","name":"South Dakota","bbox":{"minLat":42.484719157181566,"maxLat":45.9450115909059,"minLng":-104.05930966769667,"maxLng":-96.43564922669226}},"TX":{"key":"TX","name":"Texas","bbox":{"minLat":25.840437651866516,"maxLat":36.50050935248352,"minLng":-106.64719063660635,"maxLng":-93.5175532104321}},"WY":{"key":"WY","name":"Wyoming","bbox":{"minLat":40.995109653686534,"maxLat":45.006059349083486,"minLng":-111.05843295392954,"maxLng":-104.05213107971079}},"CT":{"key":"CT","name":"Connecticut","bbox":{"minLat":40.98480093739937,"maxLat":42.050894013430124,"minLng":-73.72618613336134,"maxLng":-71.78796737717377}},"MO":{"key":"MO","name":"Missouri","bbox":{"minLat":35.99538225441254,"maxLat":40.613687151061505,"minLng":-95.76804054400543,"maxLng":-89.09913230512305}},"WV":{"key":"WV","name":"West Virginia","bbox":{"minLat":37.2015020600106,"maxLat":40.63859988208881,"minLng":-82.63840311783117,"maxLng":-77.72107034750347}},"IL":{"key":"IL","name":"Illinois","bbox":{"minLat":36.97041500324003,"maxLat":42.508772828518275,"minLng":-91.51472716237161,"maxLng":-87.4947178902789}},"NM":{"key":"NM","name":"New Mexico","bbox":{"minLat":31.332406253852533,"maxLat":37.00048209241092,"minLng":-109.04842831788318,"maxLng":-103.0004679397794}},"AR":{"key":"AR","name":"Arkansas","bbox":{"minLat":33.00413641175411,"maxLat":36.49965029279292,"minLng":-94.61946646626465,"maxLng":-89.65547287402873}},"CA":{"key":"CA","name":"California","bbox":{"minLat":32.5342307609976,"maxLat":42.00965914828148,"minLng":-124.41060660766607,"maxLng":-114.13445790587905}},"DE":{"key":"DE","name":"Delaware","bbox":{"minLat":38.45143390982909,"maxLat":39.8388153101431,"minLng":-75.7900301793018,"maxLng":-75.05063561675617}},"DC":{"key":"DC","name":"District of Columbia","bbox":{"minLat":38.79162154730547,"maxLat":38.99435963428633,"minLng":-77.11806895668957,"maxLng":-76.90988990509905}},"HI":{"key":"HI","name":"Hawaii","bbox":{"minLat":18.91727560534605,"maxLat":22.23238695135951,"minLng":-160.24970712717126,"maxLng":-154.80833743387433}},"IA":{"key":"IA","name":"Iowa","bbox":{"minLat":40.37830479583795,"maxLat":43.50012771146711,"minLng":-96.63306039630396,"maxLng":-90.14002756307562}},"KY":{"key":"KY","name":"Kentucky","bbox":{"minLat":36.49707311372113,"maxLat":39.14641319952199,"minLng":-89.57291911219112,"maxLng":-81.96720514115141}},"MD":{"key":"MD","name":"Maryland","bbox":{"minLat":37.91709878227782,"maxLat":39.72284225191251,"minLng":-79.48700299202991,"maxLng":-75.05063561675617}},"MI":{"key":"MI","name":"Michigan","bbox":{"minLat":41.696102361213605,"maxLat":48.190593622126215,"minLng":-90.416403200532,"maxLng":-82.4158668902689}},"MS":{"key":"MS","name":"Mississippi","bbox":{"minLat":30.180407208762084,"maxLat":34.99543677455774,"minLng":-91.64394174611746,"maxLng":-88.09771928109281}},"MT":{"key":"MT","name":"Montana","bbox":{"minLat":44.35832834237342,"maxLat":49.00154597004969,"minLng":-116.05114089810897,"maxLng":-104.04136319773197}},"NH":{"key":"NH","name":"New Hampshire","bbox":{"minLat":42.696906900759004,"maxLat":45.30587118110181,"minLng":-72.55607629166292,"maxLng":-70.70400059130591}},"NY":{"key":"NY","name":"New York","bbox":{"minLat":40.502009391283906,"maxLat":45.01550900568005,"minLng":-79.7633786294863,"maxLng":-71.85616396303963}},"OH":{"key":"OH","name":"Ohio","bbox":{"minLat":38.40504468653686,"maxLat":41.97787393972939,"minLng":-84.82069386553866,"maxLng":-80.52071966199662}},"OR":{"key":"OR","name":"Oregon","bbox":{"minLat":41.99161889477894,"maxLat":46.26801803457034,"minLng":-124.55417836738366,"maxLng":-116.46390970729706}},"TN":{"key":"TN","name":"Tennessee","bbox":{"minLat":34.98255087919878,"maxLat":36.67833470843708,"minLng":-90.3087243807438,"maxLng":-81.64775797577975}},"UT":{"key":"UT","name":"Utah","bbox":{"minLat":36.99790491333913,"maxLat":42.0019276110661,"minLng":-114.05190414404143,"maxLng":-109.04124972989729}},"VA":{"key":"VA","name":"Virginia","bbox":{"minLat":36.540885157941574,"maxLat":39.46598340442404,"minLng":-83.67570908179081,"maxLng":-75.24086819838197}},"WA":{"key":"WA","name":"Washington","bbox":{"minLat":45.54383071539715,"maxLat":49.00240502974029,"minLng":-124.73364306703067,"maxLng":-116.9161607504075}},"WI":{"key":"WI","name":"Wisconsin","bbox":{"minLat":42.49159163470634,"maxLat":47.07725226311263,"minLng":-92.88942676166761,"maxLng":-86.82351991359913}},"AMERICAN SAMOA":{"key":"AMERICAN SAMOA","name":"American Samoa","bbox":{"minLat":-14.373864584355843,"maxLat":-14.157381542325423,"minLng":-170.84530299432993,"maxLng":-169.42394257312571}},"GUAM":{"key":"GUAM","name":"Guam","bbox":{"minLat":13.245763528025279,"maxLat":13.652098761677614,"minLng":144.62133533915335,"maxLng":144.9587289744897}},"COMMONWEALTH OF THE NORTHERN MARIANA ISLANDS":{"key":"COMMONWEALTH OF THE NORTHERN MARIANA ISLANDS","name":"Commonwealth of the Northern Mariana Islands","bbox":{"minLat":14.110836636456362,"maxLat":18.81247032309323,"minLng":145.12024720417202,"maxLng":146.0821779942799}},"NE":{"key":"NE","name":"Nebraska","bbox":{"minLat":40.00031853197531,"maxLat":43.001014031230305,"minLng":-104.05213107971079,"maxLng":-95.30861091290913}},"SC":{"key":"SC","name":"South Carolina","bbox":{"minLat":32.03425802107021,"maxLat":35.21535605535055,"minLng":-83.34908332843328,"maxLng":-78.53942937789378}},"PUERTO RICO":{"key":"PUERTO RICO","name":"Puerto Rico","bbox":{"minLat":17.91217576734767,"maxLat":18.51609472983729,"minLng":-67.94024421674217,"maxLng":-65.22314866408664}},"UNITED STATES VIRGIN ISLANDS":{"key":"UNITED STATES VIRGIN ISLANDS","name":"United States Virgin Islands","bbox":{"minLat":17.679370591195905,"maxLat":18.38465859717597,"minLng":-65.08316619836198,"maxLng":-64.57707574535745}},"ID":{"key":"ID","name":"Idaho","bbox":{"minLat":41.988182656016555,"maxLat":49.00068691035909,"minLng":-117.24278650376503,"maxLng":-111.04407577795777}},"NV":{"key":"NV","name":"Nevada","bbox":{"minLat":35.00145019239192,"maxLat":42.0019276110661,"minLng":-120.00654287832877,"maxLng":-114.04113626206261}},"VT":{"key":"VT","name":"Vermont","bbox":{"minLat":42.726973989929895,"maxLat":45.01550900568005,"minLng":-73.43904261392613,"maxLng":-71.49364526975269}},"LA":{"key":"LA","name":"Louisiana","bbox":{"minLat":28.929616299252984,"maxLat":33.01959948618486,"minLng":-94.04159013340133,"maxLng":-88.81557807968079}},"RI":{"key":"RI","name":"Rhode Island","bbox":{"minLat":41.15145851737517,"maxLat":42.019108804878044,"minLng":-71.85975325703257,"maxLng":-71.12035869448694}}}
